{
"type": "FeatureCollection",
"name": "estadios",
"crs": { "type": "name", "properties": { "name": "urn:ogc:def:crs:OGC:1.3:CRS84" } },
"features": [
{ "type": "Feature", "properties": { "id": 5, "nome": "Estádio de Cucujães", "equipa": "AC Cucujães", "x": -8.5029389047672037, "y": 40.877649513223759 }, "geometry": { "type": "Point", "coordinates": [ -8.502938904767204, 40.877649513223759 ] } },
{ "type": "Feature", "properties": { "id": 0, "nome": "Parque da Concórdia", "equipa": "Relâmpago Nogueirense", "x": -8.5822056508243865, "y": 40.999772566839546 }, "geometry": { "type": "Point", "coordinates": [ -8.582205650824386, 40.999772566839546 ] } },
{ "type": "Feature", "properties": { "id": 4, "nome": "Complexo Desportivo do Calvário", "equipa": "GD São Roque", "x": -8.4629242560965174, "y": 40.879234242722539 }, "geometry": { "type": "Point", "coordinates": [ -8.462924256096517, 40.879234242722539 ] } },
{ "type": "Feature", "properties": { "id": 1, "nome": "Estádio do Lusitânia Futebol Clube Lourosa", "equipa": "Lusitânia Futebol Clube Lourosa", "x": -8.5436262557483182, "y": 40.987344244943124 }, "geometry": { "type": "Point", "coordinates": [ -8.543626255748318, 40.987344244943124 ] } },
{ "type": "Feature", "properties": { "id": 7, "nome": "Estádio Tavares da Silva", "equipa": "JD Carregosense", "x": -8.5689421815676248, "y": 40.759332571909887 }, "geometry": { "type": "Point", "coordinates": [ -8.568942181567625, 40.759332571909887 ] } },
{ "type": "Feature", "properties": { "id": 23, "nome": "Campo Dr. Oliveira Santos", "equipa": "S. Vicente Pereira", "x": -8.5519887368816594, "y": 40.872658820078478 }, "geometry": { "type": "Point", "coordinates": [ -8.551988736881659, 40.872658820078478 ] } },
{ "type": "Feature", "properties": { "id": 3, "nome": "Estádio Maria Carolina Leite Resende Garcia", "equipa": "CD Arrifanense", "x": -8.4901629444563138, "y": 40.918817529785862 }, "geometry": { "type": "Point", "coordinates": [ -8.490162944456314, 40.918817529785862 ] } },
{ "type": "Feature", "properties": { "id": 8, "nome": "Campo de Futebol Municipal da Vista Alegre", "equipa": "SC Vista Alegre", "x": -8.684639985372506, "y": 40.594309642804028 }, "geometry": { "type": "Point", "coordinates": [ -8.684639985372506, 40.594309642804028 ] } },
{ "type": "Feature", "properties": { "id": 9, "nome": "Parque Desportivo da AA Avanca", "equipa": "AA Avanca", "x": -8.6053873558237157, "y": 40.810734143485462 }, "geometry": { "type": "Point", "coordinates": [ -8.605387355823716, 40.810734143485462 ] } },
{ "type": "Feature", "properties": { "id": 10, "nome": "Parque de Jogos da Canada", "equipa": "LAAC", "x": -8.4168085144255418, "y": 40.521272149325377 }, "geometry": { "type": "Point", "coordinates": [ -8.416808514425542, 40.521272149325377 ] } },
{ "type": "Feature", "properties": { "id": 11, "nome": "Estádio Manuel Castro Azevedo", "equipa": "UD Mourisquense", "x": -8.4491605950751119, "y": 40.614709793470723 }, "geometry": { "type": "Point", "coordinates": [ -8.449160595075112, 40.614709793470723 ] } },
{ "type": "Feature", "properties": { "id": 13, "nome": "Estádio Dr.Américo Couto", "equipa": "GD Mealhada", "x": -8.4554453717313756, "y": 40.37391330191241 }, "geometry": { "type": "Point", "coordinates": [ -8.455445371731376, 40.37391330191241 ] } },
{ "type": "Feature", "properties": { "id": 14, "nome": "Estádio Jaime Rocha", "equipa": "FC Pinheirense", "x": -8.4985284927047324, "y": 40.783643766682466 }, "geometry": { "type": "Point", "coordinates": [ -8.498528492704732, 40.783643766682466 ] } },
{ "type": "Feature", "properties": { "id": 15, "nome": "Campo de Jogos Gafanha da Nazaré", "equipa": "GD Gafanha SAD", "x": -8.7089750710470213, "y": 40.624442276194614 }, "geometry": { "type": "Point", "coordinates": [ -8.708975071047021, 40.624442276194614 ] } },
{ "type": "Feature", "properties": { "id": 16, "nome": "Estádio Municipal das Dairas", "equipa": "AD Valecambrense", "x": -8.3957110833788047, "y": 40.838655344923531 }, "geometry": { "type": "Point", "coordinates": [ -8.395711083378805, 40.838655344923531 ] } },
{ "type": "Feature", "properties": { "id": 17, "nome": "Campo de Futebol Padre Baptista", "equipa": "GD Calvão", "x": -8.7029179785488022, "y": 40.474863898284738 }, "geometry": { "type": "Point", "coordinates": [ -8.702917978548802, 40.474863898284738 ] } },
{ "type": "Feature", "properties": { "id": 18, "nome": "Estádio Dr. Manuel Santos Pato", "equipa": "UD Bustos", "x": -8.5889447193282376, "y": 40.501771227251119 }, "geometry": { "type": "Point", "coordinates": [ -8.588944719328238, 40.501771227251119 ] } },
{ "type": "Feature", "properties": { "id": 20, "nome": "Futebol Vagos Santo André", "equipa": "ADCF Santo André", "x": -8.6932118736804185, "y": 40.510085453260295 }, "geometry": { "type": "Point", "coordinates": [ -8.693211873680418, 40.510085453260295 ] } },
{ "type": "Feature", "properties": { "id": 21, "nome": "Complexo Desportivo do Sargaçal", "equipa": "CCR Válega", "x": -8.6112636801790874, "y": 40.830822849834412 }, "geometry": { "type": "Point", "coordinates": [ -8.611263680179087, 40.830822849834412 ] } },
{ "type": "Feature", "properties": { "id": 22, "nome": "Estádio Bastos Xavier", "equipa": "AD Valonguense", "x": -8.4117322036971771, "y": 40.620443031422568 }, "geometry": { "type": "Point", "coordinates": [ -8.411732203697177, 40.620443031422568 ] } },
{ "type": "Feature", "properties": { "id": 19, "nome": "Estádio Vale das Cavadas", "equipa": "VN Monsarros", "x": -8.3948720229458154, "y": 40.402374232001051 }, "geometry": { "type": "Point", "coordinates": [ -8.394872022945815, 40.402374232001051 ] } }
]
}
